{
  "siteId": "2026-orion-geneva",
  "exportedAt": 1779545755,
  "portals": [
    {
      "title": "La Terrasse en Peinture",
      "lat": 46.201265,
      "lng": 6.155728,
      "ornamentId": "ap1"
    },
    {
      "title": "Borne Vieux Tram",
      "lat": 46.201094,
      "lng": 6.155506,
      "ornamentId": "ap1"
    },
    {
      "title": "Fontaine Cours de Rive",
      "lat": 46.201388,
      "lng": 6.153809,
      "ornamentId": "ap1"
    },
    {
      "title": "Statue De La Poste",
      "lat": 46.202304,
      "lng": 6.161323,
      "ornamentId": "ap1"
    },
    {
      "title": "Cubi Sculpture",
      "lat": 46.200405,
      "lng": 6.157148,
      "ornamentId": "ap1"
    },
    {
      "title": "Portique En Pierre Gravée",
      "lat": 46.197995,
      "lng": 6.154628,
      "ornamentId": "ap1"
    },
    {
      "title": "Borne échecs",
      "lat": 46.204453,
      "lng": 6.157831,
      "ornamentId": "ap1"
    },
    {
      "title": "Le bois raméal fragmenté",
      "lat": 46.199316,
      "lng": 6.15769,
      "ornamentId": "ap1"
    },
    {
      "title": "Chevaux de bois",
      "lat": 46.199906,
      "lng": 6.159809,
      "ornamentId": "ap1"
    },
    {
      "title": "Mairie Des Eaux-Vives",
      "lat": 46.201637,
      "lng": 6.159686,
      "ornamentId": "ap1"
    },
    {
      "title": "Anamorphose 1992",
      "lat": 46.200151,
      "lng": 6.157518,
      "ornamentId": "ap1"
    },
    {
      "title": "Le Plus Ancien Bâtiment Des Eaux Vives",
      "lat": 46.204899,
      "lng": 6.160749,
      "ornamentId": "ap1"
    },
    {
      "title": "Carillon De L'église Catholique Romaine",
      "lat": 46.202749,
      "lng": 6.158442,
      "ornamentId": "ap1"
    },
    {
      "title": "Sculpture murale géometrique abstraite",
      "lat": 46.203494,
      "lng": 6.159593,
      "ornamentId": "ap1"
    },
    {
      "title": "Mosaique de l'arbre flottant",
      "lat": 46.205025,
      "lng": 6.16225,
      "ornamentId": "ap1"
    },
    {
      "title": "Paroisse Eaux Vives",
      "lat": 46.201557,
      "lng": 6.16076,
      "ornamentId": "ap1"
    },
    {
      "title": "Tequería",
      "lat": 46.203355,
      "lng": 6.160249,
      "ornamentId": "ap1"
    },
    {
      "title": "Fontaine Merle D'aubigné",
      "lat": 46.204794,
      "lng": 6.164758,
      "ornamentId": "ap1"
    },
    {
      "title": "Fontaine De L'esplanade",
      "lat": 46.198645,
      "lng": 6.155005,
      "ornamentId": "ap1"
    },
    {
      "title": "Sculpture murale femme assise",
      "lat": 46.204338,
      "lng": 6.162789,
      "ornamentId": "ap1"
    },
    {
      "title": "Eaux-Vives 2000",
      "lat": 46.2006,
      "lng": 6.159827,
      "ornamentId": "ap1"
    },
    {
      "title": "Mad Lion De Villereuse",
      "lat": 46.199994,
      "lng": 6.159018,
      "ornamentId": "ap1"
    },
    {
      "title": "La prairie graveleuse et la Thomise variable",
      "lat": 46.198513,
      "lng": 6.157981,
      "ornamentId": "ap1"
    },
    {
      "title": "Baromètre du Jardin Anglais",
      "lat": 46.20346,
      "lng": 6.153881,
      "ornamentId": "ap1"
    },
    {
      "title": "Pavillon des Tranchées",
      "lat": 46.198982,
      "lng": 6.154517,
      "ornamentId": "ap1"
    },
    {
      "title": "Fontaine Du Clos",
      "lat": 46.20547,
      "lng": 6.162651,
      "ornamentId": "ap1"
    },
    {
      "title": "Fontaine D'eau",
      "lat": 46.204174,
      "lng": 6.164578,
      "ornamentId": "ap1"
    },
    {
      "title": "Graffiti Parking Villereuse",
      "lat": 46.200412,
      "lng": 6.159087,
      "ornamentId": "ap1"
    },
    {
      "title": "Ancien Candélabre",
      "lat": 46.205061,
      "lng": 6.160225,
      "ornamentId": "ap1"
    },
    {
      "title": "Bloc Erratique 36 Tonnes",
      "lat": 46.199095,
      "lng": 6.157458,
      "ornamentId": "ap1"
    },
    {
      "title": "Fontaine Frontenex",
      "lat": 46.201691,
      "lng": 6.158734,
      "ornamentId": "ap1"
    },
    {
      "title": "Fondateurs Donateurs 1900-1948",
      "lat": 46.201587,
      "lng": 6.161049,
      "ornamentId": "ap1"
    },
    {
      "title": "Citation murale",
      "lat": 46.19984,
      "lng": 6.157101,
      "ornamentId": "ap1"
    },
    {
      "title": "Fabulae “Eaux-Vives”",
      "lat": 46.201236,
      "lng": 6.158791,
      "ornamentId": "ap1"
    },
    {
      "title": "Pharmacie de la rue de Montchoisy",
      "lat": 46.204362,
      "lng": 6.162281,
      "ornamentId": "ap1"
    },
    {
      "title": "Ombres gravissant les marches d’un escalier",
      "lat": 46.205355,
      "lng": 6.160872,
      "ornamentId": "ap1"
    },
    {
      "title": "Tamanoir",
      "lat": 46.198382,
      "lng": 6.158545,
      "ornamentId": "ap1"
    },
    {
      "title": "Alberto Ginastera 1916-1983",
      "lat": 46.205262,
      "lng": 6.164464,
      "ornamentId": "ap1"
    },
    {
      "title": "Jh Merle d'aubigné",
      "lat": 46.204898,
      "lng": 6.163599,
      "ornamentId": "ap1"
    },
    {
      "title": "Tour Carrée",
      "lat": 46.198788,
      "lng": 6.1541,
      "ornamentId": "ap1"
    },
    {
      "title": "Bibliothèque des Eaux-Vives",
      "lat": 46.20485,
      "lng": 6.162031,
      "ornamentId": "ap1"
    },
    {
      "title": "Portique",
      "lat": 46.205103,
      "lng": 6.158228,
      "ornamentId": "ap1"
    },
    {
      "title": "Street Art Borne",
      "lat": 46.203265,
      "lng": 6.159908,
      "ornamentId": "ap1"
    },
    {
      "title": "Sculpture Murale Eaux Vives",
      "lat": 46.203148,
      "lng": 6.157377,
      "ornamentId": "ap1"
    },
    {
      "title": "L Hacienda",
      "lat": 46.203485,
      "lng": 6.157693,
      "ornamentId": "ap1"
    },
    {
      "title": "Les carrés de terre nue et l’Osmie rousse",
      "lat": 46.199263,
      "lng": 6.158754,
      "ornamentId": "ap1"
    },
    {
      "title": "Peinture Murale 2",
      "lat": 46.205001,
      "lng": 6.161695,
      "ornamentId": "ap1"
    },
    {
      "title": "Peinture Murale",
      "lat": 46.203127,
      "lng": 6.160628,
      "ornamentId": "ap1"
    },
    {
      "title": "Église Évangélique Baptiste",
      "lat": 46.203366,
      "lng": 6.158987,
      "ornamentId": "ap1"
    },
    {
      "title": "Fleurs suspendues",
      "lat": 46.205045,
      "lng": 6.156895,
      "ornamentId": "ap1"
    },
    {
      "title": "Fontaine parc Malagnou",
      "lat": 46.198814,
      "lng": 6.158971,
      "ornamentId": "ap1"
    },
    {
      "title": "Street Art Vollandes",
      "lat": 46.204444,
      "lng": 6.161277,
      "ornamentId": "ap1"
    },
    {
      "title": "Borne Mascaron",
      "lat": 46.20287,
      "lng": 6.162459,
      "ornamentId": "ap1"
    },
    {
      "title": "Salle de la Réformation",
      "lat": 46.202729,
      "lng": 6.154664,
      "ornamentId": "ap1"
    },
    {
      "title": "Maison Du Paon",
      "lat": 46.202848,
      "lng": 6.155274,
      "ornamentId": "ap1"
    },
    {
      "title": "Les Tranchees de Geneve",
      "lat": 46.198627,
      "lng": 6.156076,
      "ornamentId": "ap1"
    },
    {
      "title": "Gravure d'entrée n°1",
      "lat": 46.203898,
      "lng": 6.158467,
      "ornamentId": "ap1"
    },
    {
      "title": "Borne Archi",
      "lat": 46.204978,
      "lng": 6.16387,
      "ornamentId": "ap1"
    },
    {
      "title": "Symphony Coiffure",
      "lat": 46.203373,
      "lng": 6.158208,
      "ornamentId": "ap1"
    },
    {
      "title": "Aux Beaux Arts",
      "lat": 46.200692,
      "lng": 6.154515,
      "ornamentId": "ap1"
    },
    {
      "title": "Panneau d’affichage, Eaux-Vives",
      "lat": 46.202281,
      "lng": 6.158719,
      "ornamentId": "ap1"
    },
    {
      "title": "Horloge du bijoutier",
      "lat": 46.202658,
      "lng": 6.159219,
      "ornamentId": "ap1"
    },
    {
      "title": "Librairie du Cinéma",
      "lat": 46.201007,
      "lng": 6.156837,
      "ornamentId": "ap1"
    },
    {
      "title": "Chanzy",
      "lat": 46.205721,
      "lng": 6.163629,
      "ornamentId": "ap1"
    },
    {
      "title": "Sculpture Murale Cherbuliez",
      "lat": 46.203804,
      "lng": 6.15812,
      "ornamentId": "ap1"
    },
    {
      "title": "Mascaron du Quai Ador",
      "lat": 46.205367,
      "lng": 6.157579,
      "ornamentId": "ap1"
    },
    {
      "title": "Aire de jeux Malagnou",
      "lat": 46.198757,
      "lng": 6.160455,
      "ornamentId": "ap1"
    },
    {
      "title": "Art Deco 27",
      "lat": 46.203453,
      "lng": 6.159907,
      "ornamentId": "ap1"
    },
    {
      "title": "San Remo",
      "lat": 46.202664,
      "lng": 6.156951,
      "ornamentId": "ap1"
    },
    {
      "title": "Arche De Portique",
      "lat": 46.2024,
      "lng": 6.155434,
      "ornamentId": "ap1"
    },
    {
      "title": "Gravure Sur Portique",
      "lat": 46.202977,
      "lng": 6.15567,
      "ornamentId": "ap1"
    },
    {
      "title": "Tourterelle Face en bas",
      "lat": 46.203523,
      "lng": 6.163931,
      "ornamentId": "ap1"
    },
    {
      "title": "Gravure d'entrée Genève",
      "lat": 46.204815,
      "lng": 6.159844,
      "ornamentId": "ap1"
    },
    {
      "title": "Porte Gravée Sur Pierre",
      "lat": 46.203849,
      "lng": 6.161189,
      "ornamentId": "ap1"
    },
    {
      "title": "Blason d’entrée",
      "lat": 46.202486,
      "lng": 6.159964,
      "ornamentId": "ap1"
    },
    {
      "title": "Le vieux bois et le Lucane cerf-volant",
      "lat": 46.199504,
      "lng": 6.159253,
      "ornamentId": "ap1"
    },
    {
      "title": "Fontaine Lachenal",
      "lat": 46.199953,
      "lng": 6.155985,
      "ornamentId": "ap1"
    },
    {
      "title": "Le nichoir et la Pipistrelle commune",
      "lat": 46.198968,
      "lng": 6.159091,
      "ornamentId": "ap1"
    },
    {
      "title": "Godzilla Graffiti",
      "lat": 46.199608,
      "lng": 6.159624,
      "ornamentId": "ap1"
    },
    {
      "title": "Borne Archi",
      "lat": 46.197998,
      "lng": 6.154404,
      "ornamentId": "ap1"
    },
    {
      "title": "Façade Tetris",
      "lat": 46.203966,
      "lng": 6.156721,
      "ornamentId": "ap1"
    },
    {
      "title": "Fontaine de l’ancien musée de l’horlogerie",
      "lat": 46.198408,
      "lng": 6.160157,
      "ornamentId": "ap1"
    },
    {
      "title": "Fontaine De Frontenex",
      "lat": 46.2019,
      "lng": 6.157929,
      "ornamentId": "ap1"
    },
    {
      "title": "Fontaine Muzy",
      "lat": 46.203145,
      "lng": 6.157114,
      "ornamentId": "ap1"
    },
    {
      "title": "Le nichoir et la Mésange charbonnière",
      "lat": 46.198504,
      "lng": 6.160019,
      "ornamentId": "ap1"
    },
    {
      "title": "Arcadia",
      "lat": 46.204113,
      "lng": 6.158585,
      "ornamentId": "ap1"
    },
    {
      "title": "Poste des Eaux-Vives",
      "lat": 46.202599,
      "lng": 6.161372,
      "ornamentId": "ap1"
    },
    {
      "title": "Ludothèque des Eaux-Vives",
      "lat": 46.202948,
      "lng": 6.161653,
      "ornamentId": "ap1"
    },
    {
      "title": "Fresque Murale",
      "lat": 46.203908,
      "lng": 6.161832,
      "ornamentId": "ap1"
    },
    {
      "title": "L’abrevoir à oiseaux et le Pic épeiche",
      "lat": 46.199757,
      "lng": 6.158397,
      "ornamentId": "ap1"
    },
    {
      "title": "Fontaine Helvétique",
      "lat": 46.200504,
      "lng": 6.154144,
      "ornamentId": "ap1"
    },
    {
      "title": "Terrain de jeu parc Villereuse",
      "lat": 46.200074,
      "lng": 6.159208,
      "ornamentId": "ap1"
    },
    {
      "title": "Cattaneo Sanitaire",
      "lat": 46.20324,
      "lng": 6.158953,
      "ornamentId": "ap1"
    },
    {
      "title": "Consulat général d’Autriche",
      "lat": 46.203058,
      "lng": 6.16325,
      "ornamentId": "ap1"
    },
    {
      "title": "Sculpture De Porte",
      "lat": 46.205449,
      "lng": 6.160537,
      "ornamentId": "ap1"
    },
    {
      "title": "Lézard des murailles et Criquet duettiste",
      "lat": 46.199057,
      "lng": 6.15668,
      "ornamentId": "ap1"
    },
    {
      "title": "Musée Clarté",
      "lat": 46.200287,
      "lng": 6.156381,
      "ornamentId": "ap1"
    },
    {
      "title": "Toiture Fantaisie",
      "lat": 46.202313,
      "lng": 6.157827,
      "ornamentId": "ap1"
    },
    {
      "title": "Backyard Spiral",
      "lat": 46.200681,
      "lng": 6.157187,
      "ornamentId": "ap1"
    },
    {
      "title": "Petite Pause",
      "lat": 46.200048,
      "lng": 6.153807,
      "ornamentId": "ap1"
    },
    {
      "title": "Fontaine Édouard Martin",
      "lat": 46.201476,
      "lng": 6.160378,
      "ornamentId": "ap1"
    },
    {
      "title": "Lionhead Halles de Rive",
      "lat": 46.20192,
      "lng": 6.154875,
      "ornamentId": "ap1"
    },
    {
      "title": "Le City - Cinema",
      "lat": 46.202256,
      "lng": 6.15672,
      "ornamentId": "ap1"
    },
    {
      "title": "Vase Ancien",
      "lat": 46.202002,
      "lng": 6.160082,
      "ornamentId": "ap1"
    },
    {
      "title": "P. Elie Louis Piachaud",
      "lat": 46.198423,
      "lng": 6.154171,
      "ornamentId": "ap1"
    },
    {
      "title": "Porte Sculptée",
      "lat": 46.202085,
      "lng": 6.15912,
      "ornamentId": "ap1"
    },
    {
      "title": "Le Berger",
      "lat": 46.202224,
      "lng": 6.155347,
      "ornamentId": "ap1"
    },
    {
      "title": "Fontaine Département de la culture",
      "lat": 46.198693,
      "lng": 6.159386,
      "ornamentId": "ap1"
    },
    {
      "title": "Stettler",
      "lat": 46.202514,
      "lng": 6.155734,
      "ornamentId": "ap1"
    },
    {
      "title": "Fontaine Place Eaux Vives",
      "lat": 46.202512,
      "lng": 6.156288,
      "ornamentId": "ap1"
    },
    {
      "title": "Rêve en La-Bemol",
      "lat": 46.19836,
      "lng": 6.159219,
      "ornamentId": "ap1"
    },
    {
      "title": "Geneva Islamic Center",
      "lat": 46.205744,
      "lng": 6.161043,
      "ornamentId": "ap1"
    },
    {
      "title": "Portail Lux",
      "lat": 46.204243,
      "lng": 6.156056,
      "ornamentId": "ap1"
    },
    {
      "title": "Autre Fresque Vollandes",
      "lat": 46.202648,
      "lng": 6.163126,
      "ornamentId": "ap1"
    },
    {
      "title": "Fontaine De L'avenir",
      "lat": 46.205075,
      "lng": 6.161398,
      "ornamentId": "ap1"
    },
    {
      "title": "Église Saint-Joseph",
      "lat": 46.202267,
      "lng": 6.155865,
      "ornamentId": "ap1"
    },
    {
      "title": "La Pêche",
      "lat": 46.201208,
      "lng": 6.154599,
      "ornamentId": "ap1"
    },
    {
      "title": "La Bodega",
      "lat": 46.203885,
      "lng": 6.157879,
      "ornamentId": "ap1"
    },
    {
      "title": "Shogun - Restaurant Japonais",
      "lat": 46.204133,
      "lng": 6.158996,
      "ornamentId": "ap1"
    },
    {
      "title": "Cafe Bon-Vin - Spécialités de Fondues et cuisine Suisse",
      "lat": 46.202855,
      "lng": 6.156388,
      "ornamentId": "ap1"
    },
    {
      "title": "Vigneron",
      "lat": 46.203007,
      "lng": 6.159195,
      "ornamentId": "ap1"
    },
    {
      "title": "La Tourterelle",
      "lat": 46.203631,
      "lng": 6.164161,
      "ornamentId": "ap1"
    },
    {
      "title": "Fontaine en demi-cercle",
      "lat": 46.205003,
      "lng": 6.162171,
      "ornamentId": "ap1"
    },
    {
      "title": "Pierre Fatio 1662-1707",
      "lat": 46.203265,
      "lng": 6.154333,
      "ornamentId": "ap1"
    },
    {
      "title": "L'arbre Aux Animaux",
      "lat": 46.203936,
      "lng": 6.16375,
      "ornamentId": "ap1"
    },
    {
      "title": "Restaurant-pizzeria du Jet D'Eau",
      "lat": 46.205247,
      "lng": 6.160474,
      "ornamentId": "ap1"
    },
    {
      "title": "Babel dans la nuit",
      "lat": 46.198828,
      "lng": 6.155585,
      "ornamentId": "ap1"
    },
    {
      "title": "Roger Ferrier",
      "lat": 46.199255,
      "lng": 6.159664,
      "ornamentId": "ap1"
    },
    {
      "title": "Gravure De Portique",
      "lat": 46.202897,
      "lng": 6.155948,
      "ornamentId": "ap1"
    },
    {
      "title": "Sculpture De Portique",
      "lat": 46.205605,
      "lng": 6.160709,
      "ornamentId": "ap1"
    },
    {
      "title": "Sculpture David Wynne 1985",
      "lat": 46.203322,
      "lng": 6.15554,
      "ornamentId": "ap1"
    },
    {
      "title": "L’ange qui s’envole",
      "lat": 46.199712,
      "lng": 6.15523,
      "ornamentId": "ap1"
    },
    {
      "title": "Fresque Des Vollandes",
      "lat": 46.203464,
      "lng": 6.162088,
      "ornamentId": "ap1"
    },
    {
      "title": "Sculpture Femme",
      "lat": 46.204005,
      "lng": 6.15936,
      "ornamentId": "ap1"
    },
    {
      "title": "Galeries Cimaise",
      "lat": 46.204502,
      "lng": 6.158643,
      "ornamentId": "ap1"
    },
    {
      "title": "Fontaine Fatio",
      "lat": 46.203636,
      "lng": 6.154014,
      "ornamentId": "ap1"
    },
    {
      "title": "Immeuble Ancien",
      "lat": 46.205972,
      "lng": 6.160436,
      "ornamentId": "ap1"
    },
    {
      "title": "House of Pandit Shyamji Krishnavarma 1914",
      "lat": 46.206089,
      "lng": 6.159477,
      "ornamentId": "ap1"
    },
    {
      "title": "Le SPA",
      "lat": 46.206336,
      "lng": 6.161442,
      "ornamentId": "ap1"
    },
    {
      "title": "Face du 1er Juin",
      "lat": 46.206165,
      "lng": 6.161263,
      "ornamentId": "ap1"
    },
    {
      "title": "Mascaron gargouille",
      "lat": 46.206802,
      "lng": 6.160572,
      "ornamentId": "ap1"
    },
    {
      "title": "Tour de la Grenade",
      "lat": 46.205857,
      "lng": 6.160836,
      "ornamentId": "ap1"
    },
    {
      "title": "Vieil immeuble quai Ador",
      "lat": 46.206572,
      "lng": 6.160169,
      "ornamentId": "ap1"
    },
    {
      "title": "Maison Royale",
      "lat": 46.206964,
      "lng": 6.160898,
      "ornamentId": "ap1"
    },
    {
      "title": "Immeuble Ancien De La Rade",
      "lat": 46.207182,
      "lng": 6.16136,
      "ornamentId": "ap1"
    },
    {
      "title": "Hans Leutenegger",
      "lat": 46.205962,
      "lng": 6.158832,
      "ornamentId": "ap1"
    },
    {
      "title": "Mascaron floral 83",
      "lat": 46.206769,
      "lng": 6.162048,
      "ornamentId": "ap1"
    },
    {
      "title": "Henri Dunant",
      "lat": 46.201549,
      "lng": 6.144038,
      "ornamentId": "ap1"
    },
    {
      "title": "Memorial Fountain",
      "lat": 46.202395,
      "lng": 6.14361,
      "ornamentId": "ap1"
    },
    {
      "title": "Dame Piaget",
      "lat": 46.203058,
      "lng": 6.143431,
      "ornamentId": "ap1"
    },
    {
      "title": "Fontaine du Grand-Mézel",
      "lat": 46.20231,
      "lng": 6.144641,
      "ornamentId": "ap1"
    },
    {
      "title": "Fontaine De La Bibliothèque",
      "lat": 46.202805,
      "lng": 6.144907,
      "ornamentId": "ap1"
    },
    {
      "title": "Ferdinand de Saussure",
      "lat": 46.202563,
      "lng": 6.144411,
      "ornamentId": "ap1"
    },
    {
      "title": "Passage des Degrés de Poules",
      "lat": 46.200879,
      "lng": 6.149347,
      "ornamentId": "ap1"
    },
    {
      "title": "Plaque Bezanson Hugues",
      "lat": 46.204534,
      "lng": 6.143745,
      "ornamentId": "ap1"
    },
    {
      "title": "Fontaine Pargesa",
      "lat": 46.202486,
      "lng": 6.145179,
      "ornamentId": "ap1"
    },
    {
      "title": "Fontaine Bourg de Four",
      "lat": 46.200306,
      "lng": 6.149141,
      "ornamentId": "ap1"
    },
    {
      "title": "Chapelle de la Pélisserie",
      "lat": 46.202144,
      "lng": 6.145754,
      "ornamentId": "ap1"
    },
    {
      "title": "Place du Rhône",
      "lat": 46.20486,
      "lng": 6.146513,
      "ornamentId": "ap1"
    },
    {
      "title": "Fontaine de Bel-Air",
      "lat": 46.203737,
      "lng": 6.143768,
      "ornamentId": "ap1"
    },
    {
      "title": "La portique à deux têtes",
      "lat": 46.202173,
      "lng": 6.145321,
      "ornamentId": "ap1"
    },
    {
      "title": "Fontaine Nez De Lipp",
      "lat": 46.203226,
      "lng": 6.145188,
      "ornamentId": "ap1"
    },
    {
      "title": "Maison Naissance J J Rousseau",
      "lat": 46.201432,
      "lng": 6.146637,
      "ornamentId": "ap1"
    },
    {
      "title": "Vieille Fontaine",
      "lat": 46.201857,
      "lng": 6.145884,
      "ornamentId": "ap1"
    },
    {
      "title": "Horace Benedict",
      "lat": 46.202413,
      "lng": 6.144107,
      "ornamentId": "ap1"
    },
    {
      "title": "Rond-Point De Rive",
      "lat": 46.201694,
      "lng": 6.153508,
      "ornamentId": "ap1"
    },
    {
      "title": "Rodolphe Töpffer",
      "lat": 46.198995,
      "lng": 6.15314,
      "ornamentId": "ap1"
    },
    {
      "title": "François LeFort 1656-1699",
      "lat": 46.199115,
      "lng": 6.153707,
      "ornamentId": "ap1"
    },
    {
      "title": "Ecusson de L'islande",
      "lat": 46.197328,
      "lng": 6.153881,
      "ornamentId": "ap1"
    },
    {
      "title": "Visage Gravé",
      "lat": 46.197761,
      "lng": 6.154395,
      "ornamentId": "ap1"
    },
    {
      "title": "Le bon vieux temps",
      "lat": 46.203887,
      "lng": 6.143042,
      "ornamentId": "ap1"
    },
    {
      "title": "Oeuvre Castella 1990",
      "lat": 46.20305,
      "lng": 6.144584,
      "ornamentId": "ap1"
    },
    {
      "title": "Passage des Lions",
      "lat": 46.20366,
      "lng": 6.144298,
      "ornamentId": "ap1"
    },
    {
      "title": "Bartholomé Tecia",
      "lat": 46.204443,
      "lng": 6.14284,
      "ornamentId": "ap1"
    },
    {
      "title": "Sculpture Maçons de la Cité",
      "lat": 46.203463,
      "lng": 6.143767,
      "ornamentId": "ap1"
    },
    {
      "title": "Portail De L'église De La Madeleine",
      "lat": 46.202159,
      "lng": 6.149104,
      "ornamentId": "ap1"
    },
    {
      "title": "Mémoire au bombardement de 1940",
      "lat": 46.20174,
      "lng": 6.149362,
      "ornamentId": "ap1"
    },
    {
      "title": "Clock Tower",
      "lat": 46.202036,
      "lng": 6.149332,
      "ornamentId": "ap1"
    },
    {
      "title": "Bat Fountain",
      "lat": 46.20198,
      "lng": 6.149683,
      "ornamentId": "ap1"
    },
    {
      "title": "Fondement (1984) par Alain Schaller",
      "lat": 46.2015,
      "lng": 6.1495,
      "ornamentId": "ap1"
    },
    {
      "title": "Canons de l'Artillerie de Genève",
      "lat": 46.201219,
      "lng": 6.147166,
      "ornamentId": "ap1"
    },
    {
      "title": "Porche De L'hôtel De Ville",
      "lat": 46.20107,
      "lng": 6.146815,
      "ornamentId": "ap1"
    },
    {
      "title": "Sculpture Perron IV",
      "lat": 46.202242,
      "lng": 6.147972,
      "ornamentId": "ap1"
    },
    {
      "title": "Plan de ville",
      "lat": 46.202632,
      "lng": 6.147898,
      "ornamentId": "ap1"
    },
    {
      "title": "Fresque Murale Bodiol",
      "lat": 46.202126,
      "lng": 6.147822,
      "ornamentId": "ap1"
    },
    {
      "title": "Fontaine des Granges",
      "lat": 46.201333,
      "lng": 6.146206,
      "ornamentId": "ap1"
    },
    {
      "title": "Nikolaï Karamzine 1759-1790",
      "lat": 46.201563,
      "lng": 6.146369,
      "ornamentId": "ap1"
    },
    {
      "title": "Passage secret de Monetier",
      "lat": 46.201826,
      "lng": 6.147859,
      "ornamentId": "ap1"
    },
    {
      "title": "salle centrale",
      "lat": 46.202203,
      "lng": 6.148646,
      "ornamentId": "ap1"
    },
    {
      "title": "François Simon 1917-1982",
      "lat": 46.20321,
      "lng": 6.143911,
      "ornamentId": "ap1"
    },
    {
      "title": "José Rizal",
      "lat": 46.204446,
      "lng": 6.144061,
      "ornamentId": "ap1"
    },
    {
      "title": "Arche Belle Epoque",
      "lat": 46.204142,
      "lng": 6.144451,
      "ornamentId": "ap1"
    },
    {
      "title": "Swiss Family de Candolle",
      "lat": 46.20158,
      "lng": 6.14789,
      "ornamentId": "ap1"
    },
    {
      "title": "Blason rue du Perron",
      "lat": 46.201839,
      "lng": 6.14763,
      "ornamentId": "ap1"
    },
    {
      "title": "La cour de l'Hôtel de ville de",
      "lat": 46.200835,
      "lng": 6.146887,
      "ornamentId": "ap1"
    },
    {
      "title": "Pierre Fatio",
      "lat": 46.201729,
      "lng": 6.147488,
      "ornamentId": "ap1"
    },
    {
      "title": "Maison Tavel",
      "lat": 46.201426,
      "lng": 6.147145,
      "ornamentId": "ap1"
    },
    {
      "title": "Jorge Luis Borges",
      "lat": 46.201817,
      "lng": 6.146426,
      "ornamentId": "ap1"
    },
    {
      "title": "Petite Fontaine de Longemalle",
      "lat": 46.20333,
      "lng": 6.150119,
      "ornamentId": "ap1"
    },
    {
      "title": "Fontaine de la Place du Port",
      "lat": 46.203764,
      "lng": 6.150301,
      "ornamentId": "ap1"
    },
    {
      "title": "Bubule Tournant",
      "lat": 46.20326,
      "lng": 6.152685,
      "ornamentId": "ap1"
    },
    {
      "title": "Isaac Casaubon 1559-1614",
      "lat": 46.201126,
      "lng": 6.151695,
      "ornamentId": "ap1"
    },
    {
      "title": "Gravure Murale Rive",
      "lat": 46.201739,
      "lng": 6.151899,
      "ornamentId": "ap1"
    },
    {
      "title": "Temple de la Fusterie",
      "lat": 46.20369,
      "lng": 6.145764,
      "ornamentId": "ap1"
    },
    {
      "title": "Porte de la Treille",
      "lat": 46.200878,
      "lng": 6.146716,
      "ornamentId": "ap1"
    },
    {
      "title": "Théâtre de Poche",
      "lat": 46.201898,
      "lng": 6.145579,
      "ornamentId": "ap1"
    },
    {
      "title": "Sculpture De Portique En Pierre",
      "lat": 46.203061,
      "lng": 6.15312,
      "ornamentId": "ap1"
    },
    {
      "title": "La Clémence - Place du Bourg-de-Four - Clémentine",
      "lat": 46.200024,
      "lng": 6.149,
      "ornamentId": "ap1"
    },
    {
      "title": "Ground Wood Snake",
      "lat": 46.199548,
      "lng": 6.153703,
      "ornamentId": "ap1"
    },
    {
      "title": "Les Trois Travailleurs",
      "lat": 46.204001,
      "lng": 6.14926,
      "ornamentId": "ap1"
    },
    {
      "title": "Tour Toboggan Treille",
      "lat": 46.200188,
      "lng": 6.146985,
      "ornamentId": "ap1"
    },
    {
      "title": "Hermès sur un aigle",
      "lat": 46.204496,
      "lng": 6.145077,
      "ornamentId": "ap1"
    },
    {
      "title": "François Liszt",
      "lat": 46.198958,
      "lng": 6.149361,
      "ornamentId": "ap1"
    },
    {
      "title": "Mirror Ball",
      "lat": 46.202625,
      "lng": 6.149914,
      "ornamentId": "ap1"
    },
    {
      "title": "Jules-Guillaume Fick et G.H. Dufour",
      "lat": 46.19927,
      "lng": 6.149425,
      "ornamentId": "ap1"
    },
    {
      "title": "Les bulbes de l'église orthodo",
      "lat": 46.198741,
      "lng": 6.153609,
      "ornamentId": "ap1"
    },
    {
      "title": "George ELIOT (Miss Evans)",
      "lat": 46.202201,
      "lng": 6.146035,
      "ornamentId": "ap1"
    },
    {
      "title": "Fontaine de la HEAD",
      "lat": 46.198834,
      "lng": 6.150792,
      "ornamentId": "ap1"
    },
    {
      "title": "Chapelle De St. Léger",
      "lat": 46.199156,
      "lng": 6.148061,
      "ornamentId": "ap1"
    },
    {
      "title": "Arche Gravée Bellot",
      "lat": 46.198402,
      "lng": 6.152129,
      "ornamentId": "ap1"
    },
    {
      "title": "Immeuble rue Croix D'or",
      "lat": 46.202717,
      "lng": 6.148366,
      "ornamentId": "ap1"
    },
    {
      "title": "Fontaine Ocean",
      "lat": 46.201565,
      "lng": 6.145936,
      "ornamentId": "ap1"
    },
    {
      "title": "La Fontaine De Lierre",
      "lat": 46.199652,
      "lng": 6.148931,
      "ornamentId": "ap1"
    },
    {
      "title": "Musée d'art et d'histoire de Genève",
      "lat": 46.19941,
      "lng": 6.151649,
      "ornamentId": "ap1"
    },
    {
      "title": "En Commemoration",
      "lat": 46.200657,
      "lng": 6.146506,
      "ornamentId": "ap1"
    },
    {
      "title": "Old Time Promenade",
      "lat": 46.198788,
      "lng": 6.149528,
      "ornamentId": "ap1"
    },
    {
      "title": "Auditoire de Calvin",
      "lat": 46.200799,
      "lng": 6.148189,
      "ornamentId": "ap1"
    },
    {
      "title": "Fontaine Double Bassins",
      "lat": 46.199517,
      "lng": 6.148249,
      "ornamentId": "ap1"
    },
    {
      "title": "Jean Capodistrias",
      "lat": 46.200368,
      "lng": 6.147622,
      "ornamentId": "ap1"
    },
    {
      "title": "Lion Gravé",
      "lat": 46.198041,
      "lng": 6.153663,
      "ornamentId": "ap1"
    },
    {
      "title": "Statue de le Fort, Geneva",
      "lat": 46.198019,
      "lng": 6.152574,
      "ornamentId": "ap1"
    },
    {
      "title": "Cathedrale de Genève",
      "lat": 46.201105,
      "lng": 6.148731,
      "ornamentId": "ap1"
    },
    {
      "title": "Clémentine",
      "lat": 46.200027,
      "lng": 6.149111,
      "ornamentId": "ap1"
    },
    {
      "title": "Fontaine EJD",
      "lat": 46.201072,
      "lng": 6.15305,
      "ornamentId": "ap1"
    },
    {
      "title": "Charles Bonnet",
      "lat": 46.202868,
      "lng": 6.147665,
      "ornamentId": "ap1"
    },
    {
      "title": "Gondebaud, roi des burgondes",
      "lat": 46.200046,
      "lng": 6.149422,
      "ornamentId": "ap1"
    },
    {
      "title": "Sismodi J. Ch. L.",
      "lat": 46.199771,
      "lng": 6.14934,
      "ornamentId": "ap1"
    },
    {
      "title": "La societe hippique de l'Etrier",
      "lat": 46.199748,
      "lng": 6.148021,
      "ornamentId": "ap1"
    },
    {
      "title": "Bibliothèque De La Cite",
      "lat": 46.202862,
      "lng": 6.14521,
      "ornamentId": "ap1"
    },
    {
      "title": "1888 College Calvin Sud",
      "lat": 46.200524,
      "lng": 6.151095,
      "ornamentId": "ap1"
    },
    {
      "title": "Mosaic d'Enfer",
      "lat": 46.20234,
      "lng": 6.149164,
      "ornamentId": "ap1"
    },
    {
      "title": "A Jean de Toledo",
      "lat": 46.204622,
      "lng": 6.148135,
      "ornamentId": "ap1"
    },
    {
      "title": "Sculpture Pliée",
      "lat": 46.20432,
      "lng": 6.149831,
      "ornamentId": "ap1"
    },
    {
      "title": "Fontaine Lion",
      "lat": 46.201126,
      "lng": 6.149102,
      "ornamentId": "ap1"
    },
    {
      "title": "Dance with the Crocodile",
      "lat": 46.199146,
      "lng": 6.151336,
      "ornamentId": "ap1"
    },
    {
      "title": "François de Versonnex",
      "lat": 46.202213,
      "lng": 6.15235,
      "ornamentId": "ap1"
    },
    {
      "title": "Vase Le Fort",
      "lat": 46.198195,
      "lng": 6.152811,
      "ornamentId": "ap1"
    },
    {
      "title": "Tour De Verre",
      "lat": 46.1997,
      "lng": 6.151059,
      "ornamentId": "ap1"
    },
    {
      "title": "La Poste - Office Des Vieux Collèges",
      "lat": 46.201943,
      "lng": 6.150239,
      "ornamentId": "ap1"
    },
    {
      "title": "Ecusson Suisse",
      "lat": 46.202622,
      "lng": 6.15356,
      "ornamentId": "ap1"
    },
    {
      "title": "Porte de la chapelle des Macch",
      "lat": 46.201052,
      "lng": 6.148122,
      "ornamentId": "ap1"
    },
    {
      "title": "Nef et voûtes de la cathédrale",
      "lat": 46.201108,
      "lng": 6.148486,
      "ornamentId": "ap1"
    },
    {
      "title": "Batiment Ancien",
      "lat": 46.197994,
      "lng": 6.152207,
      "ornamentId": "ap1"
    },
    {
      "title": "Horloge Breguet 1775",
      "lat": 46.20436,
      "lng": 6.146522,
      "ornamentId": "ap1"
    },
    {
      "title": "Maison De Pierre François Bellot",
      "lat": 46.198782,
      "lng": 6.152572,
      "ornamentId": "ap1"
    },
    {
      "title": "Femme du toit",
      "lat": 46.203257,
      "lng": 6.146909,
      "ornamentId": "ap1"
    },
    {
      "title": "L.L. Zemenhof",
      "lat": 46.201467,
      "lng": 6.151446,
      "ornamentId": "ap1"
    },
    {
      "title": "Arche de la Head",
      "lat": 46.19869,
      "lng": 6.151326,
      "ornamentId": "ap1"
    },
    {
      "title": "Klima",
      "lat": 46.200212,
      "lng": 6.149649,
      "ornamentId": "ap1"
    },
    {
      "title": "Architecture Moderne",
      "lat": 46.20267,
      "lng": 6.146958,
      "ornamentId": "ap1"
    },
    {
      "title": "A la mémoire de F. Hodler",
      "lat": 46.198179,
      "lng": 6.149954,
      "ornamentId": "ap1"
    },
    {
      "title": "Edouard Sayous",
      "lat": 46.202371,
      "lng": 6.146764,
      "ornamentId": "ap1"
    },
    {
      "title": "Robert A Ceard",
      "lat": 46.200082,
      "lng": 6.148502,
      "ornamentId": "ap1"
    },
    {
      "title": "Fontaine Robert Estienne",
      "lat": 46.202926,
      "lng": 6.151944,
      "ornamentId": "ap1"
    },
    {
      "title": "Neptune",
      "lat": 46.201654,
      "lng": 6.149017,
      "ornamentId": "ap1"
    },
    {
      "title": "Pommier",
      "lat": 46.201671,
      "lng": 6.146954,
      "ornamentId": "ap1"
    },
    {
      "title": "Bibliothèque d'art et d'archéologie",
      "lat": 46.198347,
      "lng": 6.150525,
      "ornamentId": "ap1"
    },
    {
      "title": "Pictet de Rochemont",
      "lat": 46.200728,
      "lng": 6.146259,
      "ornamentId": "ap1"
    },
    {
      "title": "Head Genève",
      "lat": 46.19851,
      "lng": 6.151116,
      "ornamentId": "ap1"
    },
    {
      "title": "Fontaine De La Petite Fusterie",
      "lat": 46.204729,
      "lng": 6.145344,
      "ornamentId": "ap1"
    },
    {
      "title": "Borne Vieux Genève",
      "lat": 46.204843,
      "lng": 6.145289,
      "ornamentId": "ap1"
    },
    {
      "title": "La Paix",
      "lat": 46.203504,
      "lng": 6.151559,
      "ornamentId": "ap1"
    },
    {
      "title": "Peinture Fleurie",
      "lat": 46.20464,
      "lng": 6.149208,
      "ornamentId": "ap1"
    },
    {
      "title": "Horloge Passage Malbuisson",
      "lat": 46.203789,
      "lng": 6.146405,
      "ornamentId": "ap1"
    },
    {
      "title": "La trompette de la renommée de",
      "lat": 46.199411,
      "lng": 6.151653,
      "ornamentId": "ap1"
    },
    {
      "title": "Cathédrale st Pierre de Genève",
      "lat": 46.201247,
      "lng": 6.148076,
      "ornamentId": "ap1"
    },
    {
      "title": "Cariatides Rhone",
      "lat": 46.202962,
      "lng": 6.153619,
      "ornamentId": "ap1"
    },
    {
      "title": "Maison de Cavour",
      "lat": 46.201775,
      "lng": 6.144787,
      "ornamentId": "ap1"
    },
    {
      "title": "Mosaïque dorée du Soleil-Levant",
      "lat": 46.200942,
      "lng": 6.147901,
      "ornamentId": "ap1"
    },
    {
      "title": "Palais De Justice",
      "lat": 46.200283,
      "lng": 6.15032,
      "ornamentId": "ap1"
    },
    {
      "title": "Rodolphe Töpffer",
      "lat": 46.201245,
      "lng": 6.147599,
      "ornamentId": "ap1"
    },
    {
      "title": "Fontaine Hiboux",
      "lat": 46.200932,
      "lng": 6.151456,
      "ornamentId": "ap1"
    },
    {
      "title": "Sculptures Murales",
      "lat": 46.198748,
      "lng": 6.152964,
      "ornamentId": "ap1"
    },
    {
      "title": "Le Thermomètre",
      "lat": 46.203229,
      "lng": 6.149436,
      "ornamentId": "ap1"
    },
    {
      "title": "Fontaine sous Calvin",
      "lat": 46.200968,
      "lng": 6.150361,
      "ornamentId": "ap1"
    },
    {
      "title": "Armée Du Salut",
      "lat": 46.201543,
      "lng": 6.150636,
      "ornamentId": "ap1"
    },
    {
      "title": "Celestial Sphere",
      "lat": 46.204539,
      "lng": 6.14854,
      "ornamentId": "ap1"
    },
    {
      "title": "Genève - Chœur de la Cathédrale St-Pierre",
      "lat": 46.201011,
      "lng": 6.148744,
      "ornamentId": "ap1"
    },
    {
      "title": "Fontaine dans sa propre rue",
      "lat": 46.201173,
      "lng": 6.149908,
      "ornamentId": "ap1"
    },
    {
      "title": "Horloge du Coin",
      "lat": 46.199909,
      "lng": 6.148389,
      "ornamentId": "ap1"
    },
    {
      "title": "Post Tenebras Lux",
      "lat": 46.204047,
      "lng": 6.147966,
      "ornamentId": "ap1"
    },
    {
      "title": "Eglise Saint-Germain",
      "lat": 46.201424,
      "lng": 6.145739,
      "ornamentId": "ap1"
    },
    {
      "title": "Union Chrétienne",
      "lat": 46.201909,
      "lng": 6.147046,
      "ornamentId": "ap1"
    },
    {
      "title": "La fontaine de la Treille",
      "lat": 46.200519,
      "lng": 6.146788,
      "ornamentId": "ap1"
    },
    {
      "title": "Tabazan",
      "lat": 46.198989,
      "lng": 6.149083,
      "ornamentId": "ap1"
    },
    {
      "title": "Grande moulure du Molard",
      "lat": 46.203576,
      "lng": 6.147851,
      "ornamentId": "ap1"
    },
    {
      "title": "Fontaine du Molard",
      "lat": 46.203069,
      "lng": 6.147722,
      "ornamentId": "ap1"
    },
    {
      "title": "Fontaine de la Fusterie",
      "lat": 46.204183,
      "lng": 6.146235,
      "ornamentId": "ap1"
    },
    {
      "title": "Premiere Migros A Geneve",
      "lat": 46.203123,
      "lng": 6.150881,
      "ornamentId": "ap1"
    },
    {
      "title": "Plaque Murale",
      "lat": 46.200342,
      "lng": 6.148004,
      "ornamentId": "ap1"
    },
    {
      "title": "Patek Philippe - Manufacture D'Horlogerie",
      "lat": 46.203787,
      "lng": 6.149579,
      "ornamentId": "ap1"
    },
    {
      "title": "Hotel de Longemalle",
      "lat": 46.202996,
      "lng": 6.15002,
      "ornamentId": "ap1"
    },
    {
      "title": "Rodolphe Kreutzer",
      "lat": 46.199554,
      "lng": 6.150066,
      "ornamentId": "ap1"
    },
    {
      "title": "Place de Jeux",
      "lat": 46.199521,
      "lng": 6.153337,
      "ornamentId": "ap1"
    },
    {
      "title": "Tableau Porte de la Treille",
      "lat": 46.199775,
      "lng": 6.14754,
      "ornamentId": "ap1"
    },
    {
      "title": "Le Non-Oui",
      "lat": 46.204657,
      "lng": 6.146471,
      "ornamentId": "ap1"
    },
    {
      "title": "Maison d'Ernest Ansermet",
      "lat": 46.198626,
      "lng": 6.152422,
      "ornamentId": "ap1"
    },
    {
      "title": "Hommage à Ardutius De Faucigny",
      "lat": 46.202486,
      "lng": 6.152189,
      "ornamentId": "ap1"
    },
    {
      "title": "Jean Calvin",
      "lat": 46.202086,
      "lng": 6.146667,
      "ornamentId": "ap1"
    },
    {
      "title": "Lombard Odier Bank",
      "lat": 46.202868,
      "lng": 6.143546,
      "ornamentId": "ap1"
    },
    {
      "title": "Fontaine Beauregard",
      "lat": 46.198629,
      "lng": 6.148259,
      "ornamentId": "ap1"
    },
    {
      "title": "Maison de naissance d'Albert Gallatin",
      "lat": 46.201592,
      "lng": 6.145122,
      "ornamentId": "ap1"
    },
    {
      "title": "Jeremie Par Rodo",
      "lat": 46.201077,
      "lng": 6.147698,
      "ornamentId": "ap1"
    },
    {
      "title": "Jean Etienne Liotard",
      "lat": 46.200202,
      "lng": 6.150047,
      "ornamentId": "ap1"
    },
    {
      "title": "Verrière",
      "lat": 46.200617,
      "lng": 6.15191,
      "ornamentId": "ap1"
    },
    {
      "title": "Chapelle de l’Oratoire Evangelique",
      "lat": 46.199031,
      "lng": 6.148671,
      "ornamentId": "ap1"
    },
    {
      "title": "Sculptures sous balcons",
      "lat": 46.202744,
      "lng": 6.149001,
      "ornamentId": "ap1"
    },
    {
      "title": "Musée International De La Réforme",
      "lat": 46.201454,
      "lng": 6.148453,
      "ornamentId": "ap1"
    },
    {
      "title": "Alhambra theater",
      "lat": 46.202791,
      "lng": 6.146351,
      "ornamentId": "ap1"
    },
    {
      "title": "Rolex Clock",
      "lat": 46.203699,
      "lng": 6.149968,
      "ornamentId": "ap1"
    },
    {
      "title": "Tour du Molard",
      "lat": 46.20396,
      "lng": 6.14811,
      "ornamentId": "ap1"
    },
    {
      "title": "Evangelical Lutheran Church of Geneva",
      "lat": 46.201111,
      "lng": 6.149623,
      "ornamentId": "ap1"
    },
    {
      "title": "Borne Les bébés",
      "lat": 46.20204,
      "lng": 6.152141,
      "ornamentId": "ap1"
    },
    {
      "title": "Fontaine Du Lion",
      "lat": 46.199467,
      "lng": 6.150408,
      "ornamentId": "ap1"
    },
    {
      "title": "Fontaine Potable Le Fort",
      "lat": 46.198422,
      "lng": 6.153068,
      "ornamentId": "ap1"
    },
    {
      "title": "Petit Palais",
      "lat": 46.197771,
      "lng": 6.150859,
      "ornamentId": "ap1"
    },
    {
      "title": "Façade Ornemental XIX siècle",
      "lat": 46.197921,
      "lng": 6.151428,
      "ornamentId": "ap1"
    },
    {
      "title": "Vase Geant",
      "lat": 46.197685,
      "lng": 6.152079,
      "ornamentId": "ap1"
    },
    {
      "title": "Ancienne Porte En Bois",
      "lat": 46.197546,
      "lng": 6.150715,
      "ornamentId": "ap1"
    },
    {
      "title": "Museum Fondation Baur",
      "lat": 46.197652,
      "lng": 6.153476,
      "ornamentId": "ap1"
    },
    {
      "title": "Libraire Droz",
      "lat": 46.196889,
      "lng": 6.151556,
      "ornamentId": "ap1"
    },
    {
      "title": "Bâtiment Historique",
      "lat": 46.197527,
      "lng": 6.152509,
      "ornamentId": "ap1"
    },
    {
      "title": "Fontaine des Tranchées - Genève",
      "lat": 46.197021,
      "lng": 6.153236,
      "ornamentId": "ap1"
    },
    {
      "title": "Marcelle Moynier 1888-1980",
      "lat": 46.197382,
      "lng": 6.152775,
      "ornamentId": "ap1"
    },
    {
      "title": "Museum Fondation Baur",
      "lat": 46.197398,
      "lng": 6.153391,
      "ornamentId": "ap1"
    },
    {
      "title": "Conservatoire Populaire",
      "lat": 46.197185,
      "lng": 6.151077,
      "ornamentId": "ap1"
    },
    {
      "title": "Coffret Éclairage Public",
      "lat": 46.197346,
      "lng": 6.15206,
      "ornamentId": "ap1"
    },
    {
      "title": "Tour du Petit Palais",
      "lat": 46.197675,
      "lng": 6.151132,
      "ornamentId": "ap1"
    },
    {
      "title": "Portique St-Victor",
      "lat": 46.196938,
      "lng": 6.152244,
      "ornamentId": "ap1"
    },
    {
      "title": "Véranda Mosaïque",
      "lat": 46.197138,
      "lng": 6.152357,
      "ornamentId": "ap1"
    },
    {
      "title": "Portique Art Deco",
      "lat": 46.197801,
      "lng": 6.153301,
      "ornamentId": "ap1"
    },
    {
      "title": "Fontaine Sur la Colline",
      "lat": 46.197894,
      "lng": 6.149603,
      "ornamentId": "ap1"
    }
  ]
}